OSD.latitude,OSD.longitude,OSD.altitude [ft],OSD.pitch,OSD.yaw [360],GIMBAL.pitch
13.1939175879744,-59.6414230935188,23,9.1,231.7,-31.7
13.1939179896958,-59.6414224243209,23,8.9,231.8,-31.7
13.1939184349545,-59.6414218115435,23,8.4,231.8,-31.7
13.1939188715605,-59.6414212606422,23,7.8,231.7,-31.7
13.1939193994902,-59.6414205871502,23,6.7,231.7,-31.7
13.1939199454447,-59.6414198556186,23,6,231.7,-31.7
13.1939205805127,-59.6414190138856,23,5.9,231.8,-31.7
13.1939210242978,-59.6414182525422,23,4.8,231.8,-31.7
13.1939217537907,-59.6414172491501,23,2,231.8,-31.7
13.1939223780128,-59.6414163402262,23,0.4,231.8,-31.7
13.1939230319281,-59.641415425495,23,-2.1,231.7,-31.7
13.1939235193532,-59.6414147143775,23,-8,231.7,-31.7
13.1939240658218,-59.6414139058,23,-9.2,231.8,-31.7
13.1939243248007,-59.641413672832,23,-7.8,231.8,-31.7
13.1939245473015,-59.6414133370539,23,-5.9,231.7,-31.7
13.1939248074626,-59.6414131328065,23,-4.4,231.7,-31.7
13.1939249862377,-59.6414129652342,23,-3.5,231.7,-31.7
13.1939249681101,-59.6414127879124,23,-2.7,231.7,-31.7
13.1939250052221,-59.6414127377217,23,-2,231.7,-31.7
13.1939251086937,-59.6414126177004,23,-1.6,231.8,-31.7
13.1939251162498,-59.6414125621246,23,-1.3,231.8,-31.7
13.1939252105547,-59.6414125860232,23,-0.9,231.8,-31.7
13.1939252286139,-59.6414126077045,23,-0.8,231.8,-31.7
13.193925329087,-59.6414126384314,23,-0.5,231.8,-31.7
13.1939253712022,-59.6414127004834,23,-0.3,231.7,-31.7
13.1939254327471,-59.6414126042552,23,-0.1,231.7,-31.7
13.1939254634511,-59.6414126063318,23,-0.1,231.8,-31.7
13.1939253849778,-59.6414125539237,23,-0.3,231.7,-31.7
13.1939253685635,-59.6414125227393,23,-0.5,231.7,-31.7
13.1939253893127,-59.6414124756106,23,-0.3,231.7,-31.7
13.1939253872052,-59.641412473886,23,-0.2,231.7,-31.7
13.1939252769829,-59.6414125469547,23,-0.3,231.8,-31.7
13.1939252707461,-59.6414125191844,23,-0.3,231.8,-31.7
13.1939252786106,-59.6414126641603,23,-0.1,231.7,-31.7
13.1939252827912,-59.6414127637674,23,0,231.7,-31.7
13.1939253294811,-59.6414126958374,23,0.1,231.7,-31.7
13.1939254074232,-59.6414126738746,23,0,231.7,-31.7
13.1939253212226,-59.6414128478527,23,-0.1,231.8,-31.7
13.1939253514296,-59.6414129370767,23,0,231.7,-31.7
13.1939254625258,-59.6414130966241,23,0.2,231.8,-31.7
13.1939255967185,-59.64141322819,23,0.2,231.8,-31.7
13.1939260136548,-59.641413461862,23,0.3,231.7,-31.7
13.1939262946336,-59.6414136620617,23,0.5,231.7,-31.7
13.1939266348272,-59.6414139509576,23,0.4,231.6,-31.7
13.1939270596794,-59.641414263189,23,0.5,231.6,-31.7
13.1939276095404,-59.641414527799,23,0.6,231.6,-31.7
13.1939281887005,-59.6414148982108,23,0.7,231.7,-31.7
13.1939290421914,-59.6414156124607,23,0.8,231.6,-31.7
13.1939299046776,-59.6414162149254,23,0.7,231.6,-31.7
13.1939308849593,-59.6414168307297,23,0.4,231.6,-31.7
13.1939319183733,-59.6414175693711,23,0.6,231.5,-31.7
13.1939333409666,-59.6414185369329,23,0.7,231.6,-31.7
13.19393438658,-59.6414192411166,23,0.5,231.4,-31.7
13.1939357961001,-59.6414201970986,23,0.1,231.3,-31.7
13.1939370928793,-59.6414211057056,23,0.4,231.8,-31.7
13.1939386013649,-59.6414220027328,23,0.3,232,-31.7
13.193940184657,-59.6414230294254,23,0,231.6,-31.7
13.1939413676842,-59.6414240940601,23,0.2,231.2,-31.7
13.1939430418032,-59.6414254356237,23,0.6,231.7,-31.7
13.1939444853684,-59.6414259430921,23,1.3,231.9,-31.7
13.1939460331763,-59.6414269326519,23,1.1,231.7,-31.7
13.1939472601862,-59.6414277906811,23,0,231.9,-31.7
13.1939486605226,-59.6414286635985,23,-1.5,231.8,-31.7
13.1939496423978,-59.6414293662687,23,-2.2,231.6,-31.7
13.1939503737754,-59.641429851915,23,-2.8,231.6,-31.7
13.1939508631881,-59.6414302908903,23,0.4,231.1,-31.7
13.1939512219034,-59.6414305483201,23,0.9,231.4,-31.7
13.1939516198554,-59.6414309751173,23,0,231.9,-31.7
13.1939518681598,-59.6414311841515,23,-0.3,231.8,-31.7
13.1939519521331,-59.6414314974387,23,0,231.9,-31.7
13.1939520659535,-59.641431674655,23,0,231.9,-31.7
13.1939521997864,-59.6414318425088,23,0.2,232.2,-31.7
13.1939522799217,-59.6414319347246,23,0,232.2,-31.7
13.1939523339277,-59.6414318488442,23,-0.1,231.6,-31.7
13.1939523356582,-59.6414318506041,23,-0.5,231.5,-31.7
13.1939524097966,-59.6414317337505,23,-1.2,231.7,-31.7
13.193952421105,-59.6414316551911,23,-1.2,231.7,-31.7
13.1939522254701,-59.6414317750364,23,-0.7,231.8,-31.7
13.1939521591448,-59.6414317580363,23,-0.1,231.8,-31.7
13.1939521584423,-59.6414317569452,23,0,232,-31.7
13.1939521459003,-59.6414316964418,23,-0.6,232.1,-31.7
13.1939520587916,-59.6414318018564,23,-0.8,232.2,-31.7
13.1939520500876,-59.6414318283948,23,-1.5,231.9,-31.7
13.1939520951154,-59.6414316433649,23,-1.4,231.8,-31.7
13.1939520971201,-59.6414315900065,23,-0.5,231.9,-31.7
13.1939520612246,-59.6414316643071,23,-1,232,-31.7
13.1939520299381,-59.6414316572677,23,-2.1,231.8,-31.7
13.1939521074347,-59.6414317112949,23,-1.3,231.7,-31.7
13.1939521343863,-59.6414317495891,23,-0.2,231.6,-31.7
13.1939519634586,-59.641431847366,23,-0.4,231.9,-31.7
13.1939518902968,-59.6414318745379,23,-0.9,231.9,-31.7
13.1939518184372,-59.6414318768961,23,-0.3,232,-31.7
13.1939517834841,-59.6414318678505,23,-0.2,232,-31.7
13.1939517330419,-59.6414319144864,23,-0.3,231.9,-31.7
13.1939516973006,-59.6414319493313,23,-0.2,231.8,-31.7
13.1939517800916,-59.6414320151142,23,-0.3,231.9,-31.7
13.1939517903376,-59.6414320409839,23,-0.5,231.8,-31.7
13.1939516513132,-59.6414320312344,23,-0.6,231.7,-31.7
13.1939516435001,-59.6414320624188,23,-0.4,231.6,-31.7
13.1939516751979,-59.6414322292871,23,-0.2,231.6,-31.7
13.1939516485204,-59.6414322842646,23,-0.2,231.8,-31.7
13.1939515326781,-59.6414323673644,23,0.4,231.8,-31.7
13.1939514823044,-59.641432423785,23,1,231.8,-31.7
13.1939515281547,-59.641432313478,23,1,231.8,-31.7
13.1939515031564,-59.6414323266768,23,1,231.8,-31.7
13.1939514965256,-59.6414324915038,23,0.6,231.8,-31.7
13.1939515524849,-59.6414325194149,23,0.4,231.8,-31.7
13.1939516371263,-59.641432829464,23,0.5,231.9,-31.7
13.193951731517,-59.6414330225892,23,1.1,232,-31.7
13.1939517986819,-59.641433031318,23,1.5,231.9,-31.7
13.1939519714772,-59.6414331881905,23,0.9,231.7,-31.7
13.1939520067388,-59.6414333204603,23,0.5,231.8,-31.7
13.1939522114717,-59.6414335262563,23,0.5,231.9,-31.7
13.1939525184255,-59.6414338658709,23,0.8,231.9,-31.7
13.1939527928763,-59.6414341582864,23,0.8,231.9,-31.7
13.1939530498677,-59.6414343686933,23,0.6,231.7,-31.7
13.1939533006223,-59.6414346229554,23,0.7,231.7,-31.7
13.1939536765229,-59.6414348637724,23,0.8,232,-31.7
13.1939539862524,-59.641435157983,23,1.2,232,-31.7
13.1939542678651,-59.6414354791895,23,1.9,232,-31.7
13.1939546242845,-59.6414358293279,23,1.5,231.7,-31.7
13.1939550686179,-59.6414362515495,23,1.5,231.6,-31.7
13.1939554577459,-59.6414366141828,23,1.6,231.9,-31.7
13.1939558957569,-59.6414369277868,23,2.1,231.9,-31.7
13.1939563248925,-59.6414372816913,23,1.7,231.5,-31.7
13.1939565956081,-59.6414379472992,23,1.2,231.5,-31.7
13.1939570523464,-59.6414384931673,23,1.9,231.9,-31.7
13.1939574376364,-59.6414387439098,23,2.6,232,-31.7
13.1939579797187,-59.6414393573559,23,2.7,231.9,-31.7
13.1939585593928,-59.6414398838658,23,2.7,232,-31.7
13.1939591510948,-59.6414404440239,23,2.8,231.9,-31.7
13.1939598221611,-59.6414410063642,23,2,231.7,-31.7
13.1939605450746,-59.6414416775684,23,1.6,231.8,-31.7
13.1939612405053,-59.6414421529724,23,2.1,231.9,-31.7
13.1939619681991,-59.6414427802861,23,1.8,231.8,-31.7
13.193962568845,-59.6414434304777,23,2.3,231.9,-31.7
13.1939632956479,-59.6414441111851,23,3.3,231.8,-31.7
13.1939639917811,-59.6414447009085,23,3.5,231.7,-31.7
13.1939645772121,-59.6414451782836,23,2.5,231.8,-31.7
13.1939652904106,-59.6414458318189,23,1.3,231.6,-31.7
13.1939658141597,-59.6414463257014,23,1.6,231.7,-31.7
13.1939660680498,-59.6414465241412,23,2.7,231.8,-31.7
13.1939663052515,-59.641446695726,23,2.5,231.8,-31.7
13.1939663142125,-59.6414468506626,23,2,231.7,-31.7
13.193966374678,-59.6414469750835,23,2,231.7,-31.7
13.1939663848727,-59.6414470246406,23,2.3,231.7,-31.7
13.1939663519927,-59.6414470013403,23,2,231.7,-31.7
13.1939664611357,-59.6414472143166,23,1.7,231.8,-31.7
13.1939664339271,-59.6414472187866,23,1.7,231.8,-31.7
13.1939664508553,-59.6414470487857,23,1.8,231.7,-31.7
13.193966411396,-59.6414469799054,23,1.4,231.8,-31.7
13.1939663262405,-59.6414470460755,23,1.2,231.8,-31.7
13.1939662825833,-59.6414470172493,23,1.5,231.8,-31.7
13.1939662421131,-59.641447070291,23,1.5,231.8,-31.7
13.1939662198047,-59.6414470537485,23,1.5,231.8,-31.7
13.1939661619778,-59.6414469939138,23,1.4,231.8,-31.7
13.1939661534965,-59.6414469987358,23,1.4,231.8,-31.7
13.193966184526,-59.6414468015981,23,1.6,231.7,-31.7
13.193966197959,-59.6414467195542,23,1.6,231.8,-31.7
13.1939661800369,-59.6414469188741,23,2.3,232,-31.7
13.1939662069886,-59.6414469683257,23,2.9,232.1,-31.7
13.1939663541688,-59.6414468769546,23,3.1,232.1,-31.7
13.1939664687089,-59.6414468482692,23,3,232.1,-31.7
13.1939666603001,-59.6414468853315,23,3.1,232.1,-31.7
13.1939669070111,-59.6414469000086,23,3.2,232.1,-31.7
13.193967153448,-59.6414470557547,23,3.3,232,-31.7
13.193967532467,-59.6414471500823,23,3.1,231.8,-31.7
13.193967814748,-59.6414471725379,23,2.2,231.7,-31.7
13.1939683962725,-59.6414473196608,23,1.9,231.8,-31.7
13.1939690315289,-59.6414474658685,23,2.3,231.9,-31.7
13.1939697421402,-59.6414477205178,23,3.2,231.8,-31.7
13.1939704976766,-59.6414478136136,23,3.3,231.9,-31.7
13.1939710870142,-59.6414479915337,23,3.1,231.9,-31.7
13.1939720761199,-59.6414483255167,23,3.1,231.8,-31.7
13.1939728875128,-59.6414485744289,23,3.1,231.8,-31.7
13.1939737408667,-59.6414490169239,23,3.4,231.8,-31.7
13.1939747025753,-59.6414493836752,23,2.5,231.8,-31.7
13.1939756697839,-59.6414497245216,23,1.6,231.6,-31.7
13.1939766130392,-59.6414500447779,23,1.9,231.5,-31.7
13.1939773511847,-59.6414504837884,23,1.5,231.6,-31.7
13.1939782626054,-59.6414508989354,23,-0.6,231.7,-31.7
13.1939788353402,-59.6414509295215,23,-1.6,231.7,-31.7
13.1939794357634,-59.6414511270463,23,-1.6,231.8,-31.7
13.1939797850379,-59.6414512371773,23,-0.9,231.9,-31.7
13.193980119663,-59.6414513734947,23,0,231.8,-31.7
13.193980422556,-59.6414516204007,23,0.6,231.8,-31.7
13.1939805789543,-59.641451718248,23,0.7,231.8,-31.7
13.19398061168,-59.6414519195036,23,1.1,231.7,-31.7
13.1939807162653,-59.6414520168582,23,1.4,231.7,-31.7
13.193980866324,-59.6414519895102,23,1.3,231.8,-31.7
13.193980933506,-59.6414520989021,23,1,231.6,-31.7
13.1939810766598,-59.6414520324856,23,1.1,231.6,-31.7
13.1939811568464,-59.6414520562435,23,1.5,231.7,-31.7
13.1939812377698,-59.6414521545483,23,1.8,231.8,-31.7
13.1939812941232,-59.6414522151221,23,1.4,231.8,-31.7
13.1939813461417,-59.6414522534515,23,1.3,231.8,-31.7
13.1939814190293,-59.6414523297583,23,1.8,231.8,-31.7
13.1939815604525,-59.6414522547538,23,2.3,231.9,-31.7
13.1939817086607,-59.6414523421124,23,1.8,231.8,-31.7
13.1939818302772,-59.6414523553464,23,2.2,231.7,-31.7
13.1939820567873,-59.6414524680468,23,2.2,231.7,-31.7
13.1939821859769,-59.6414527544084,23,2.2,231.8,-31.7
13.1939824891612,-59.641452995507,23,2.3,231.8,-31.7
13.1939827817226,-59.6414532466366,23,2.3,231.8,-31.7
13.1939831156451,-59.6414535042072,23,2.1,231.8,-31.7
13.1939836826572,-59.6414536149718,23,2.2,231.8,-31.7
13.1939841672382,-59.6414538530785,23,1.5,231.9,-31.7
13.1939845874299,-59.6414541816413,23,1,231.8,-31.7
13.1939851086431,-59.6414544964772,23,1.3,231.9,-31.7
13.1939857123389,-59.6414546683787,23,1.3,232,-31.7
13.1939863932743,-59.6414550131672,23,0,231.6,-31.7
13.1939872345487,-59.6414554586891,23,-0.7,231.5,-31.7
13.193987934023,-59.6414558460658,23,0,231.8,-31.7
13.1939886575875,-59.6414561848707,23,0.9,231.9,-31.7
13.1939894062361,-59.6414565918521,23,1,231.8,-31.7
13.1939900659598,-59.6414571247678,23,0.4,231.7,-31.7
13.1939909538041,-59.6414576413874,23,-0.3,231.6,-31.7
13.1939917374573,-59.6414581760981,23,0,231.6,-31.7
13.1939927489912,-59.6414588540601,23,0.1,231.8,-31.7
13.1939936736735,-59.6414593840193,23,-0.1,231.7,-31.7
13.1939946453712,-59.6414600257637,23,-0.3,231.8,-31.7
13.193995545175,-59.6414604629791,23,-0.2,232.1,-31.7
13.1939963667112,-59.6414609523211,23,0,232.1,-31.7
13.1939971534313,-59.6414616395751,23,0,232.2,-31.7
13.1939979458055,-59.6414621499296,23,-0.2,232.4,-31.7
13.1939987849725,-59.6414626081927,23,-1.1,232.6,-31.7
13.1939995244887,-59.6414631101352,23,-2.3,232.5,-31.7
13.1940000278484,-59.6414634344743,23,-0.9,232.3,-31.7
13.1940005066381,-59.641463795383,23,1.5,232.2,-31.7
13.1940011028806,-59.6414643035201,23,1.2,231.9,-31.7
13.1940016967415,-59.6414647719551,23,0.4,231.8,-31.7
13.1940023418328,-59.6414654263704,23,0.5,231.6,-31.7
13.194002851018,-59.6414659212735,23,0.7,231.6,-31.7
13.1940034065504,-59.6414664246238,23,1.1,231.5,-31.7
13.1940038896236,-59.6414669282206,23,2.1,231.4,-31.7
13.1940044779331,-59.6414676661228,23,2.4,231.2,-31.7
13.1940050082958,-59.641468256339,23,2.1,231.2,-31.7
13.194005533724,-59.641468719389,23,2,231.3,-31.7
13.1940060409559,-59.6414692792303,23,2,231.4,-31.7
13.1940064621757,-59.6414695253619,23,2.5,231.4,-31.7
13.1940069666319,-59.6414699526518,23,2.2,231.5,-31.7
13.1940073155295,-59.6414704495612,23,2.3,231.7,-31.7
13.1940076770376,-59.6414708430621,23,2.9,231.8,-31.7
13.1940080456049,-59.6414711996063,23,2.8,231.9,-31.7
13.19400837192,-59.6414715537572,23,2.4,231.9,-31.7
13.1940085873959,-59.6414718396965,23,2.3,231.8,-31.7
13.194008897588,-59.6414721698079,23,2.4,231.7,-31.7
13.194009309881,-59.6414724048525,23,2.5,231.8,-31.7
13.1940095643366,-59.6414726024477,23,2.3,231.8,-31.7
13.1940098642997,-59.6414728313681,23,1.7,231.7,-31.7
13.1940101009018,-59.6414730546922,23,1.7,231.7,-31.7
13.1940102977702,-59.6414731356098,23,1.8,231.7,-31.7
13.1940105077976,-59.6414732610866,23,1.7,231.8,-31.7
13.1940104801263,-59.6414734352055,23,1.5,231.8,-31.7
13.1940105401292,-59.6414735464276,23,1.6,231.7,-31.7
13.1940106440635,-59.6414735527278,23,1.6,231.7,-31.7
13.1940106799419,-59.6414735814133,23,1.7,231.7,-31.7
13.1940106800961,-59.6414738896322,23,1.7,231.7,-31.7
13.1940106659435,-59.6414739753366,23,2.2,231.7,-31.7
13.1940106913016,-59.6414740147571,23,2.3,231.8,-31.7
13.1940107120851,-59.6414741138362,23,2.2,231.7,-31.7
13.1940108131065,-59.6414738950525,23,2.3,231.7,-31.7
13.194010838756,-59.6414738621083,23,1.6,231.8,-31.7
13.194010809971,-59.6414738815017,23,0.8,231.8,-31.7
13.1940108304289,-59.641473873864,23,1,231.8,-31.7
13.1940107922032,-59.6414740021566,23,1.1,231.8,-31.7
13.1940107948418,-59.6414740062394,23,1.1,231.8,-31.7
13.194010777211,-59.6414740705793,23,0.6,231.8,-31.7
13.194010769655,-59.6414741374181,23,-0.6,231.8,-31.7
13.1940106647784,-59.6414741518136,23,-2,231.9,-31.7
13.1940106005262,-59.6414742445926,23,-3.1,231.8,-31.7
13.1940104867058,-59.6414745973003,23,-4.6,231.9,-31.7
13.1940102999805,-59.641474928538,23,-5.3,231.9,-31.7
13.1940102068578,-59.6414749946377,23,-5.5,232,-31.7
13.194009972072,-59.6414753594884,23,-6,232.1,-31.7
13.1940096006262,-59.6414759601933,23,-7.4,232,-31.7
13.1940092543329,-59.6414764691048,23,-8.4,232.3,-31.7
13.1940087123192,-59.6414774238901,23,-9.4,232.3,-31.7
13.1940081387105,-59.6414782548528,23,-9.8,232.1,-31.7
13.1940075136659,-59.6414790891945,23,-9.5,232,-31.7
13.1940067709799,-59.6414802217943,23,-9.2,231.9,-31.7
13.1940058581201,-59.6414814161999,23,-10,231.9,-31.7
13.1940049952741,-59.6414826076841,23,-9.4,231.9,-31.7
13.1940041380651,-59.6414839011688,23,-5.6,231.8,-31.7
13.1940031568581,-59.6414851931049,23,-1.5,231.5,-31.7
13.1940020893991,-59.6414866861911,23,0.2,231.6,-31.8
13.1940010766315,-59.6414881403143,23,1.2,231.6,-32
13.194000222301,-59.6414889476247,23,1.2,231.6,-32.6
13.193999133219,-59.6414903524019,23,5.6,231.5,-33.5
13.1939984570982,-59.6414912631912,23,13.2,231.5,-34.5
13.1939976750043,-59.6414922243471,23,14.1,231.6,-35.6
13.1939971137663,-59.6414930570697,23,12.5,231.7,-36.8
13.1939965818787,-59.6414937351725,23,10.4,231.8,-37.9
13.1939961716246,-59.6414939648672,23,8.8,231.8,-39
13.19399587442,-59.6414942713263,23,7,231.7,-39.9
13.193995632575,-59.641494174007,23,5.7,231.6,-40.4
13.1939954591457,-59.6414941933301,23,5.6,231.7,-40.6
13.1939950928058,-59.6414943289084,23,5.1,231.8,-40.6
13.1939949987749,-59.6414943609727,23,3.5,231.4,-40.6
13.1939948830355,-59.6414944198219,23,3.8,231.9,-40.6
13.193994809017,-59.6414944407288,23,3.6,231.9,-40.6
13.1939947223366,-59.6414946382888,23,3.3,231.7,-40.6
13.1939946823118,-59.6414946731337,23,3.8,231.8,-40.6
13.1939946392372,-59.6414947525026,23,3.5,231.5,-40.6
13.1939946327606,-59.6414948104367,23,3.6,231.7,-40.6
13.1939946961732,-59.6414948546439,23,3.3,231.7,-40.6
13.1939947365749,-59.6414948988512,23,2.4,231.8,-40.6
13.1939947224908,-59.6414948168425,23,1.7,232,-40.6
13.193994843816,-59.6414948962114,23,2.3,232,-40.6
13.1939950561735,-59.6414951420967,23,2.6,232,-40.6
13.193995421057,-59.6414954426075,23,2.6,232,-40.6
13.1939960533664,-59.6414957999261,23,2.7,232,-40.6
13.193996595226,-59.6414962579781,23,3.1,232.1,-40.6
13.1939975131746,-59.6414968417885,23,3.7,232.3,-40.6
13.1939983635985,-59.6414974526652,23,3.3,232.2,-40.6
13.1939992057468,-59.6414983157627,23,2.4,232,-40.6
13.1940003802927,-59.641499212438,23,2.1,232,-40.6
13.1940017266402,-59.6415001968943,23,2.2,231.9,-40.6
13.1940028336614,-59.6415010939567,23,2.3,231.9,-40.6
13.1940042368934,-59.6415019399133,23,2,232,-40.6
13.1940056961705,-59.6415030393578,23,2.1,231.9,-40.6
13.1940072342463,-59.6415042342209,23,2.4,232,-40.6
13.1940085810735,-59.6415053019529,23,2.6,232.1,-40.6
13.1940100888052,-59.6415062549432,23,2.4,232.1,-40.6
13.1940114265515,-59.6415072415113,23,2,231.9,-40.6
13.1940128855886,-59.6415082745744,23,1.5,232,-40.7
13.1940141547308,-59.641509173256,23,1.1,231.9,-41
13.1940156818752,-59.6415105856005,23,0.9,231.9,-41.7
13.1940170082788,-59.6415116646307,23,1.5,232,-42.7
13.1940182238604,-59.6415126003746,23,1.9,231.9,-43.7
13.1940196011175,-59.6415137082662,23,1.6,231.8,-44.9
13.1940208548734,-59.641514630952,23,1.9,231.9,-46
13.1940222631942,-59.6415157644318,23,2.1,231.9,-47.2
13.194023369907,-59.6415168069277,23,2.8,231.8,-48.3
13.1940244868144,-59.6415177497813,23,3,231.6,-49.4
13.1940256920129,-59.6415186742621,23,2.3,231.6,-50.2
13.1940268354608,-59.6415196689606,23,1.5,231.6,-50.6
13.1940280442573,-59.6415204090803,23,-1.5,231.7,-50.8
13.1940290843878,-59.6415212937182,23,-6.6,231.8,-50.8
13.194029872273,-59.6415221573085,23,-10.1,232,-50.8
13.1940306785943,-59.6415232636163,23,-11.8,232.1,-50.8
13.1940313937461,-59.6415247371682,23,-13,232.1,-50.8
13.1940318387305,-59.6415260481458,23,-13.8,232.1,-50.8
13.1940319740541,-59.6415277727921,23,-13.9,232.2,-50.8
13.194032054532,-59.6415294436576,23,-13.4,232.1,-50.8
13.1940319562691,-59.6415313183833,23,-12.5,232.1,-50.8
13.1940317732276,-59.6415330878352,23,-11.8,232,-50.8
13.1940316611891,-59.6415352402642,23,-11.8,232,-50.8
13.1940311795552,-59.6415377669766,23,-11.4,231.9,-50.8
13.1940306112066,-59.6415398899459,23,-9.9,232,-50.8
13.1940299272214,-59.6415424469276,23,-6.3,231.8,-50.8
13.194029103098,-59.6415449838119,23,-0.5,231.7,-50.8
13.1940283308046,-59.6415471912184,23,3.2,231.7,-50.8
13.1940276048928,-59.6415495862594,23,3.2,232,-50.8
13.1940268834357,-59.6415517817694,23,1.9,231.9,-50.8
13.1940261229647,-59.6415534197258,23,1.3,231.7,-50.8
13.1940251386051,-59.6415558323652,23,2.1,231.6,-50.8
13.1940244503364,-59.6415574123172,23,2.3,231.5,-50.8
13.1940234047059,-59.6415594167434,23,2.7,231.5,-50.8
13.194022486209,-59.641560962132,23,3,231.6,-50.8
13.194021399166,-59.641562513293,23,2.9,231.5,-50.8
13.1940202412399,-59.6415639793832,23,3.8,231.6,-50.8
13.1940191598339,-59.6415651688612,23,3.2,231.8,-50.8
13.1940181051225,-59.6415663361299,23,2.3,231.9,-50.8
13.1940171070044,-59.641567333961,23,1.6,231.8,-50.8
13.194015942379,-59.6415684619501,23,1.2,231.7,-50.8
13.1940148484824,-59.6415695398892,23,2.3,231.9,-50.8
13.1940138488222,-59.6415705440206,23,2.4,232.1,-50.8
13.1940130485834,-59.6415713468962,23,2.1,231.9,-50.8
13.1940121504073,-59.6415721600142,23,2,231.9,-50.8
13.1940113533212,-59.6415730052668,23,4.2,231.8,-50.8
13.1940104454645,-59.6415738478797,23,8,231.6,-50.8
13.1940097441568,-59.641574520527,23,9.1,231.5,-50.8
13.1940090195129,-59.6415752713465,23,5.8,231.6,-50.8
13.1940084534431,-59.6415758224942,23,3.5,231.7,-51
13.1940078209624,-59.6415764574808,23,3.5,231.7,-51.6
13.1940073428923,-59.6415769169054,23,5.4,231.6,-52.5
13.19400697304,-59.6415773345514,23,7.5,231.7,-53.6
13.1940065628716,-59.6415777912307,23,6.9,231.7,-54.7
13.1940063128195,-59.6415779268794,23,6,231.8,-55.9
13.1940060760804,-59.6415782039844,23,6.2,231.9,-57
13.1940057520955,-59.6415782331274,23,5,231.7,-58.2
13.1940055816475,-59.6415782985935,23,5.1,231.7,-59.3
13.194005547808,-59.6415785003771,23,5.7,231.7,-60.3
13.1940054656167,-59.6415785575016,23,4.8,231.6,-60.9
13.1940054591915,-59.6415785117457,23,3.3,232.1,-61.2
13.1940054665933,-59.6415784885862,23,1.8,232,-61.3
13.194005354332,-59.6415784616606,23,1.3,231.7,-61.4
13.1940053436405,-59.6415784678904,23,2,231.9,-61.6
13.1940053969098,-59.6415785335326,23,1.6,231.8,-62
13.194005405768,-59.6415785970981,23,2.1,231.6,-62.6
13.1940054164253,-59.6415786720322,23,4.4,231.7,-63.1
13.1940054492196,-59.6415787344011,23,4.3,231.7,-63.5
13.1940054034207,-59.6415788327059,23,3.8,231.5,-63.6
13.1940054056138,-59.6415789291453,23,4.8,231.5,-63.7
13.1940054605279,-59.6415789263648,23,4.9,231.6,-63.7
13.1940054330452,-59.6415789025013,23,4.8,231.8,-63.7
13.194005487788,-59.641579180275,23,3.5,231.7,-63.7
13.1940054955839,-59.64157923124,23,3.5,231.6,-63.7
13.1940053691871,-59.6415791154423,23,3.8,231.7,-63.7
13.1940053482324,-59.6415790932683,23,3,231.8,-63.7
13.1940053876061,-59.6415789499819,23,2.7,231.7,-63.7
13.1940053875718,-59.6415789011286,23,1.8,231.6,-63.7
13.194005349466,-59.6415788550911,23,-0.3,231.7,-63.7
13.1940052933182,-59.6415788557951,23,-2.2,231.9,-63.7
13.1940052099618,-59.6415789512842,23,-3.4,231.9,-63.7
13.1940050582925,-59.6415790991814,23,-4.4,231.9,-63.7
13.1940048974052,-59.641579455796,23,-5.1,231.9,-63.7
13.194004621241,-59.641579815332,23,-6.6,231.9,-63.7
13.1940042868387,-59.6415801810626,23,-8.8,231.9,-63.7
13.1940038201285,-59.6415807671607,23,-11.3,231.8,-63.7
13.1940031613129,-59.6415814449467,23,-13.8,231.7,-63.7
13.1940023362472,-59.6415825147906,23,-13.8,231.9,-63.7
13.1940014647314,-59.6415838254162,23,-10.1,232,-63.7
13.1940005715241,-59.6415850770167,23,-3.1,232,-63.7
13.1939997440596,-59.6415866037158,23,3.6,231.9,-64.1
13.1939987502078,-59.6415880418597,23,3.9,231.9,-64.9
13.1939979662463,-59.6415891889254,23,6.9,232.2,-65.9
13.1939971174158,-59.6415904025837,23,13,231.6,-67
13.1939963107518,-59.6415912113724,23,15.2,231.4,-68.1
13.193995577044,-59.6415920829876,23,15.3,231.7,-69.2
13.1939949097472,-59.6415929117329,23,15.2,231.9,-70.4
13.1939944288672,-59.6415934917772,23,13.7,232.1,-71.5
13.193994239075,-59.6415934206443,23,11.4,232,-72.7
13.1939939892114,-59.6415936561466,23,9,231.8,-73.9
13.1939939433268,-59.6415938824976,23,8.1,231.5,-75
13.1939938727009,-59.641594065662,23,7.7,231.6,-76.1
13.1939938906572,-59.6415942623421,23,7.5,231.5,-76.7
13.1939939571881,-59.6415944328357,23,6,231.6,-77.1
13.1939938304487,-59.6415947662908,23,6.7,231.3,-77.2
13.1939938837694,-59.6415948971176,23,6.8,231.4,-77.2
13.193993938358,-59.6415949076414,23,5.2,231.7,-77.2
13.1939940021989,-59.6415949489625,23,3.5,231.8,-77.2
13.193994092563,-59.6415948594569,23,2.8,231.7,-77.2
13.1939942232262,-59.6415948204588,23,2.6,231.8,-77.2
13.1939943463846,-59.6415950385034,23,-0.1,231.7,-77.2
13.1939944907206,-59.6415951272698,23,-5.2,231.8,-77.2
13.1939944921598,-59.6415952788627,23,-8.5,232,-77.2
13.1939944460354,-59.641595565154,23,-9.8,231.9,-77.2
13.1939942270299,-59.6415958003747,23,-8.5,232.1,-77.2
13.1939938866478,-59.6415962891535,23,-8.1,232.2,-77.2
13.1939934939046,-59.6415969324466,23,-7.5,231.8,-77.2
13.1939930106773,-59.6415976366654,23,-2.6,231.7,-77.2
13.1939924443848,-59.6415982931573,23,0.9,231.8,-77.2
13.1939919049068,-59.6415989640799,23,0.5,231.7,-77.2
13.1939913374664,-59.6416000094268,23,0.1,231.9,-77.2
13.1939908389213,-59.6416007804493,23,1.3,231.9,-77.2
13.1939901854858,-59.641601600325,23,2.9,231.9,-77.2
13.1939896314098,-59.6416024482878,23,3.1,232.1,-77.2
13.1939894645599,-59.6416030072844,23,3.7,232,-77.2
13.1939891243492,-59.641603736845,23,4.6,232,-77.2
13.1939887648629,-59.6416049423376,23,6.5,231.8,-77.2
13.1939885509119,-59.6416057953688,23,11.3,231.6,-77.2
13.1939884590399,-59.6416065010659,23,16.2,231.6,-77.2
13.1939884496505,-59.641607069988,23,18.3,231.7,-77.2
13.193988589566,-59.6416074703875,23,15.5,231.9,-77.2
13.1939888510978,-59.6416077233826,23,7.9,231.8,-77.2
13.1939890590005,-59.6416076232827,23,5.2,231.7,-77.2
13.1939893432176,-59.6416077067696,23,9.8,231.9,-77.2
13.1939896788364,-59.641607817851,23,17.9,231.8,-77.2
13.1939901210795,-59.6416076268728,23,24.1,231.8,-77.2
13.1939908325647,-59.6416071983862,23,25.8,231.7,-77.2
13.1939918212763,-59.6416064322208,23,17.8,231.6,-77.2
13.1939925412256,-59.6416055339265,23,2.8,232.1,-77.2
13.1939935228609,-59.6416045612964,23,-1.5,231.8,-77.2
13.193994331204,-59.6416035679001,23,0.5,232,-77.2
13.1939950641922,-59.6416027262727,23,-5.9,231.5,-77.2
13.1939957492911,-59.6416023707844,23,-11.6,231.6,-77.2
13.1939963421069,-59.6416020607704,23,-8.4,232.3,-77.2
13.1939967157458,-59.6416019923477,23,-4.7,232.2,-77.2
13.1939970438428,-59.6416018937261,23,-1.4,231.8,-77.2
13.1939975323474,-59.6416020343023,23,4.6,231.3,-77.2
13.1939978128808,-59.6416020278965,23,15.8,231.2,-77.2
13.1939982277781,-59.6416017922183,23,22.5,231.2,-77.2
13.1939987322172,-59.641601393649,23,22,230.9,-77.2
13.1939994393675,-59.641600633608,23,20,231.2,-77.2
13.1940004727986,-59.6415996181784,23,19.7,231.2,-77.2
13.1940014546738,-59.6415983227931,23,19.7,231.1,-77.2
13.1940027591289,-59.6415967702946,23,17.1,231.4,-77.2
13.1940040126621,-59.6415952377528,23,14.7,231.5,-77.2
13.1940055128891,-59.6415934367997,23,13.6,231.5,-77.2
13.1940067195954,-59.6415920034426,23,13.6,231.5,-77.1
13.1940082849312,-59.6415901399799,23,12.5,231.3,-76.6
13.1940099210129,-59.6415882795441,23,10.6,231.3,-75.8
13.194011430321,-59.641586449272,23,9.2,231.5,-74.8
13.1940132416825,-59.6415843371786,23,8.8,231.5,-73.7
13.1940150447169,-59.6415822189962,23,8.3,231.5,-72.6
13.1940166792566,-59.6415803239266,23,7.5,231.5,-71.4
13.1940183957477,-59.6415783066184,23,7.4,231.5,-70.3
13.1940199164155,-59.641576531183,23,8.1,231.4,-69.1
13.194021562195,-59.6415746195006,23,8.6,231.4,-67.9
13.1940237156348,-59.6415721420638,23,8.7,231.5,-66.8
13.1940253931463,-59.6415701077202,23,6.7,231.7,-65.6
13.1940271837758,-59.6415678285122,23,5.9,231.6,-64.5
13.194028892728,-59.6415657424292,23,6.6,231.6,-63.3
13.194030638381,-59.6415635281594,23,6.5,231.6,-62.3
13.1940324810804,-59.6415612325143,23,6.2,231.6,-61.5
13.1940340459536,-59.6415593768653,23,6.4,231.4,-61.1
13.1940360297336,-59.6415568940082,23,5.8,231.6,-61
13.1940377712231,-59.641554925518,23,4.2,231.7,-60.9
13.1940396222667,-59.6415526190323,23,3.9,231.7,-60.9
13.1940414037638,-59.6415504918395,23,3.5,231.7,-60.9
13.1940430211867,-59.6415485068772,23,2.2,231.7,-60.9
13.1940445227502,-59.6415463987258,23,-0.4,231.9,-60.9
13.1940460246735,-59.6415444473062,23,-2.5,231.8,-60.9
13.1940476035794,-59.6415426091852,23,-2.5,231.8,-60.9
13.1940491123563,-59.6415407468487,23,-3.4,231.9,-60.9
13.1940505216366,-59.6415388269654,23,-4.8,231.9,-61
13.1940517890139,-59.641537152545,23,-4.8,231.9,-60.9
13.1940529590536,-59.6415359392387,23,-6.7,232,-60.9
13.1940541505963,-59.6415344972936,23,-9.2,232.1,-60.9
13.1940549063384,-59.6415333794412,23,-9.8,232.3,-60.9
13.1940558378913,-59.6415322013318,23,-10,232.2,-61
13.1940565963747,-59.6415311030489,23,-5.1,232,-61
13.1940571479492,-59.6415302794775,23,0,231.9,-61
13.1940577449285,-59.6415294866681,23,1,231.8,-61
13.1940582296122,-59.6415287825549,23,-4.4,231.9,-61.6
13.194058756788,-59.641528069748,23,-8.5,232.1,-62.6
13.1940591597088,-59.6415275499959,23,-7.7,232,-64.1
13.1940593629168,-59.6415272028493,23,-4.6,231.9,-65.7
13.1940595512184,-59.6415269217671,23,-3.2,232.1,-67.3
13.1940595716763,-59.6415269978627,23,-1.3,232.1,-68.4
13.1940595699629,-59.6415269533035,23,0,231.9,-69.1
13.194059672355,-59.6415268882597,23,0.2,231.7,-69.4
13.1940596365109,-59.641526902796,23,0.1,231.8,-68.9
13.1940595506358,-59.6415268313464,23,0.4,231.7,-67.8
13.1940595045114,-59.6415269087795,23,2,231.5,-66.3
13.194059541829,-59.6415268644314,23,3.3,232,-64.7
13.1940595176017,-59.6415269304607,23,2.5,231.9,-63
13.194059597103,-59.6415270700515,23,3.3,231.6,-61.3
13.1940596144425,-59.6415271295342,23,3.9,231.6,-59.6
13.1940596311651,-59.6415271416419,23,2.8,232,-57.9
13.1940596880497,-59.6415271659982,23,1.3,232.1,-56.2
13.1940596420966,-59.6415272312883,23,1.3,232.1,-54.5
13.1940596637881,-59.6415272611705,23,1.8,231.8,-52.8
13.1940595874394,-59.6415272219964,23,2.1,231.7,-51.1
13.1940595792837,-59.6415272254456,23,1.9,232,-49.4
13.1940596026543,-59.6415272059466,23,1.2,232,-47.6
13.1940596347633,-59.6415272225243,23,0.9,232,-45.9
13.1940597163549,-59.6415271825407,23,1.1,232.1,-44.3
13.1940597157381,-59.6415271374535,23,0.5,231.9,-43
13.1940596893519,-59.641527304181,23,-0.5,231.7,-42.1
13.1940596609781,-59.6415273459597,23,0.8,231.7,-41.6
13.1940594222687,-59.6415273362806,23,2.4,231.8,-41.5
13.1940593349543,-59.6415273699288,23,2.1,231.9,-41.5
13.1940591906526,-59.6415273218499,23,2.3,231.7,-41.5
13.194059078357,-59.6415273292764,23,2.1,231.8,-41.5
13.1940589739773,-59.6415274137841,23,1.6,232,-41.5
13.1940588051399,-59.6415274200139,23,2.4,231.7,-41.5
13.1940585881905,-59.641527544294,23,3.5,231.7,-41.5
13.1940583935494,-59.6415275795261,23,3.2,231.9,-41.5
13.1940582390016,-59.6415274740763,23,3.1,231.9,-41.5
13.1940581667651,-59.6415274433846,23,2.7,232,-41.5
13.194058101108,-59.6415274929418,23,2,232.1,-41.5
13.1940580776688,-59.6415275064574,23,1.2,232,-41.5
13.1940582204285,-59.6415274882958,23,0.4,231.6,-41.5
13.1940582767647,-59.6415274859728,23,0,231.7,-41.5
13.1940583437925,-59.6415275295817,23,0.2,231.9,-41.5
13.1940584046179,-59.641527566644,23,0.1,231.8,-41.2
13.1940584708575,-59.6415273859082,23,-0.2,231.8,-40.6
13.1940585559787,-59.6415273682745,23,-0.6,231.8,-39.6
13.1940585623183,-59.6415272231226,23,-0.7,231.8,-38.2
13.1940586044334,-59.6415271746214,23,-0.3,231.9,-36.6
13.1940584769572,-59.6415271650478,23,-0.2,231.8,-35
13.1940584502626,-59.6415271470974,23,0.2,231.8,-33.3
13.1940584817547,-59.6415271521658,23,0.2,231.9,-32.1
13.1940585146518,-59.6415271119006,23,-1,231.9,-31.3
13.1940585138293,-59.6415272118948,23,-1.1,232,-30.9
13.1940585587887,-59.6415272225243,23,-1.2,232,-30.8
13.1940586410314,-59.6415271941908,23,-1.1,231.9,-30.8
13.1940586837634,-59.6415271910583,23,-1.1,231.9,-30.8
13.1940587416417,-59.6415272186526,23,-1.6,231.9,-30.8
13.1940587802272,-59.6415272453671,23,-1.4,232.1,-30.8
13.1940586772182,-59.6415273570467,23,-0.6,232,-30.8
13.194058655184,-59.6415273921028,23,-0.3,231.9,-30.8
13.1940586959627,-59.6415271993648,23,-1.1,232,-30.8
13.1940587088131,-59.6415271916919,23,-2.8,232.4,-30.8
13.1940586735173,-59.641527060126,23,-1.2,232.6,-30.8
13.1940586521342,-59.641527057099,23,0.5,232.2,-30.8
13.1940586694051,-59.641526954113,23,-1.1,231.8,-30.8
13.1940586335953,-59.6415269191625,23,-2.3,232.3,-30.8
13.1940585311688,-59.6415271433314,23,-0.6,232.9,-30.8
13.1940584574588,-59.6415272443464,23,1,232.7,-30.8
13.1940582601791,-59.6415272844004,23,1.4,232,-30.8
13.1940581166656,-59.6415273599681,23,3.8,231.7,-30.8
13.1940579211335,-59.6415274544716,23,5.6,231.9,-30.8
13.1940578109968,-59.6415274735483,23,4.4,232.4,-30.8
13.1940577828287,-59.641527441836,23,3.5,232.3,-30.8
13.194057731427,-59.6415274965319,23,3.6,232,-30.8
13.1940576522341,-59.6415274990661,23,3.7,232.1,-30.8
13.1940576495955,-59.6415274704158,23,2.8,232,-30.8
13.1940576966794,-59.6415273761938,23,1.9,232.1,-30.8
13.1940577157323,-59.6415273592289,23,1.5,232.2,-30.8
13.1940576801624,-59.6415273621855,23,2.1,232,-30.8
13.1940576659755,-59.6415273228002,23,1.9,231.9,-30.8
13.1940575504245,-59.6415273734133,23,1.4,232,-30.8
13.1940575185554,-59.6415273625022,23,1.9,232.1,-30.8
13.1940575594369,-59.6415272767979,23,2.4,232,-30.8
13.1940575763652,-59.6415272574396,23,2.4,231.8,-30.8
13.1940575996673,-59.6415271496668,23,1.5,231.9,-30.8
13.1940576190971,-59.6415270771964,23,1.3,232,-30.8
13.1940576144367,-59.6415271770148,23,1.3,232,-30.8
13.1940576857823,-59.6415271915511,23,0.7,231.8,-30.8
13.194057719022,-59.6415270749439,23,0.7,231.8,-30.8
13.1940577307416,-59.6415270403805,23,1.2,231.9,-30.8
13.1940577047666,-59.6415269609764,23,1.4,232,-30.8
13.1940577610344,-59.6415269405622,23,1.2,231.8,-30.8
13.1940578298441,-59.6415268350772,23,0.1,231.7,-30.8
13.1940578809717,-59.6415267691183,23,-0.2,231.7,-30.8
13.1940579268562,-59.6415267426855,23,0,231.6,-30.8
13.1940579647907,-59.6415266945714,23,0,231.5,-30.8
13.1940578983112,-59.6415266143929,23,0,231.3,-30.8
13.1940579146912,-59.6415265542767,23,-1,231.5,-30.8
13.1940580197562,-59.6415265488211,23,-2.2,231.7,-30.8
13.1940580690333,-59.641526576873,23,-1.7,231.8,-30.8
13.1940580253762,-59.6415267945656,23,0,231.8,-30.8
13.1940580661548,-59.6415269216615,23,1.8,231.8,-30.8
13.1940582431137,-59.6415268737586,23,1.6,231.6,-30.8
13.1940582856058,-59.6415268988188,23,0.2,231.9,-30.8
13.1940582111762,-59.6415268027313,23,-0.2,231.9,-30.8
13.1940582198459,-59.6415268133608,23,0.6,231.8,-30.8
13.1940581781763,-59.6415267603895,23,1,232,-30.8
13.1940581751264,-59.6415267345902,23,0.6,232.1,-30.8
13.1940580122173,-59.6415268947711,23,0.5,231.9,-30.8
13.1940579589309,-59.6415269008602,23,0.7,231.8,-30.8
13.1940577936573,-59.6415269358106,23,1.6,231.8,-30.8
13.1940576763929,-59.6415269501358,23,1.9,231.7,-30.8
13.1940576645362,-59.6415268445804,23,1.5,231.6,-30.8
13.1940575356208,-59.6415267617974,23,1.3,231.7,-30.8
13.1940573252165,-59.6415267140352,23,3.3,231.7,-30.8
13.1940571463729,-59.6415265923948,23,6,231.6,-30.8
13.1940570758155,-59.6415264879306,23,8,231.6,-30.8
13.1940569862395,-59.6415262148733,23,8.1,231.7,-30.8
13.1940567530814,-59.6415257738566,23,7,231.7,-30.8
13.1940566746081,-59.6415253484673,23,4.8,231.7,-30.8
13.1940566049417,-59.6415247889076,23,4.4,231.6,-30.8
13.1940564912925,-59.6415241676125,23,5.1,231.6,-30.8
13.1940563996262,-59.6415233430556,23,5.1,232,-30.8
13.1940562981764,-59.6415225726667,23,4.8,231.9,-30.8
13.1940561431831,-59.641521630869,23,4.4,231.7,-30.8
13.194055962746,-59.6415206644687,23,4.1,231.8,-30.8
13.1940556082799,-59.6415196594223,23,3.8,232,-30.8
13.1940553381811,-59.6415186414234,23,3.2,232.2,-30.8
13.1940549950748,-59.6415174877054,23,3.9,232.1,-30.8
13.1940546886864,-59.6415163486293,23,4,232,-30.8
13.1940540408195,-59.6415149107671,23,2.6,232.1,-30.8
13.1940535933677,-59.6415135929965,23,0.9,232.1,-30.8
13.1940532178954,-59.6415125246309,23,0,232.2,-30.8
13.194052869529,-59.641511547214,23,-4.1,232,-30.8
13.1940525028636,-59.6415105162627,23,-5.5,231.8,-30.8
13.1940521360953,-59.6415096548194,23,-4.4,231.7,-30.8
13.1940518715137,-59.6415089263148,23,-2.8,231.8,-30.8
13.1940515803059,-59.6415083089618,23,-2.4,231.7,-30.8
13.194051611661,-59.6415079863473,23,-2.5,231.7,-30.8
13.1940515062189,-59.6415077407436,23,-2,231.8,-30.8
13.1940513800963,-59.6415074700445,23,-1.6,232,-30.8
13.194051309299,-59.6415073499528,23,-0.8,232.2,-30.8
13.1940510877063,-59.6415073167622,23,-0.4,232.2,-30.8
13.1940509972565,-59.6415072832548,23,0,231.9,-30.8
13.194050981459,-59.6415071523224,23,0.5,232,-30.8
13.1940508873768,-59.6415071280718,23,0.7,232.1,-30.8
13.1940507991543,-59.6415069443442,23,0.5,232,-30.8
13.1940507502885,-59.6415069286464,23,0.9,231.9,-30.8
13.1940507241421,-59.6415068267514,23,0.7,232,-30.8
13.1940506747622,-59.6415067770887,23,0,231.9,-30.8
13.1940506225724,-59.6415067255957,23,0.5,231.9,-30.8
13.1940505636489,-59.6415066793118,23,1.8,232.1,-30.8
13.1940505223905,-59.6415066278892,23,1.3,232.3,-30.8
13.1940504761632,-59.6415065682657,23,1.2,231.9,-30.8
13.1940504571789,-59.6415063718672,23,1.7,231.9,-30.8
13.1940504077133,-59.641506212707,23,1.9,232.1,-30.8
13.1940501789929,-59.641506015147,23,1.4,232.3,-30.8
13.1940500215152,-59.6415057785185,23,1.4,232.1,-30.8
13.1940498193009,-59.6415056583916,23,0.8,231.9,-30.8
13.1940496518513,-59.6415054380944,23,0,231.7,-30.8
13.194049387184,-59.6415052667913,23,0.9,231.8,-30.8
13.1940492172157,-59.6415050804943,23,0.6,231.8,-30.8
13.1940491299699,-59.6415050216099,23,0.3,231.6,-30.8
13.1940489615608,-59.6415048804353,23,0.6,231.6,-30.8
13.1940487608543,-59.6415049792681,23,1.2,231.9,-30.8
13.1940486642192,-59.6415050302684,23,2,232.1,-30.8
13.1940485850091,-59.6415050277342,23,2.1,232,-30.8
13.1940485024066,-59.6415050588482,23,2.1,232,-30.8
13.1940483747248,-59.6415050275934,23,2.1,232.2,-30.8
13.1940482181552,-59.6415050209412,23,2.5,232.3,-30.8
13.1940478867,-59.6415048139484,23,3,232.3,-30.8
13.1940476295373,-59.6415046601381,23,3.1,232.2,-30.8
13.1940472752425,-59.6415045066446,23,2.7,232.2,-30.8
13.1940469046191,-59.6415042669892,23,2.2,232.2,-30.8
13.1940463733997,-59.6415040441226,23,2.4,232.2,-30.8
13.194045858646,-59.6415037266469,23,3.2,232,-30.8
13.1940453995603,-59.6415036038099,23,3.4,232,-30.8
13.1940447741902,-59.6415031945759,23,2.7,232.1,-30.8
13.1940440810897,-59.6415029127898,23,2.4,232,-30.8
13.1940434767428,-59.6415026002769,23,2.7,231.8,-30.8
13.1940427257812,-59.6415020227316,23,3,231.9,-30.8
13.1940421120449,-59.6415015487706,23,3,232,-30.8
13.1940411406728,-59.6415013300573,23,2.4,232.1,-30.8
13.1940402718813,-59.6415009015003,23,2.6,232.1,-30.8
13.1940397365841,-59.6415003744272,23,2.9,232.1,-30.8
13.194039019102,-59.6414999282014,23,3.1,232,-30.8
13.1940382326732,-59.6414994159111,23,2.8,232,-30.8
13.1940375947268,-59.6414989839752,23,2.5,232,-30.8
13.1940368962805,-59.641498558973,23,2.4,232,-30.8
13.1940362931844,-59.6414981670208,23,2.4,232.2,-30.8
13.1940357452423,-59.6414978692553,23,2.2,232.2,-30.8
13.1940352875102,-59.6414976216806,23,2.4,232.1,-30.8
13.1940350640842,-59.641497291182,23,2.9,232.3,-30.8
13.1940348449588,-59.6414971403282,23,2.7,232.3,-30.8
13.194034715495,-59.6414969382279,23,2.6,232.2,-30.8
13.1940345915313,-59.6414967990242,23,2.3,232.2,-30.8
13.1940344704289,-59.641496785755,23,1.9,232,-30.8
13.1940343954852,-59.6414967232102,23,2.3,231.8,-30.8
13.19403431523,-59.6414966111082,23,2,232.2,-30.8
13.1940342887753,-59.6414965695759,23,1.2,232.3,-30.8
13.194034254319,-59.6414964665547,23,1.9,232,-30.8
13.1940342325075,-59.6414964414945,23,2.2,231.9,-30.8
13.1940341395047,-59.6414963526576,23,1.9,232.2,-30.8
13.194034097184,-59.6414963216492,23,2.2,232.2,-30.8
13.1940340583757,-59.6414963522001,23,2.3,232.1,-30.8
13.1940340602776,-59.6414963227755,23,2,232.1,-30.8
13.1940340660346,-59.6414963839124,23,2,232,-30.8
13.1940340723056,-59.6414963902479,23,1.8,232,-30.8
13.1940340781996,-59.6414963597322,23,1.2,231.9,-30.8
13.1940340811809,-59.6414963391068,23,1.1,231.9,-30.8
13.1940340850875,-59.6414963876785,23,1.5,232,-30.8
13.1940341066933,-59.6414963969705,23,2,231.9,-30.8
13.1940342310512,-59.641496382047,23,1.4,231.9,-30.8
13.194034313311,-59.6414963881713,23,0.6,231.9,-30.8
13.1940342339125,-59.6414964283309,23,0.5,231.8,-30.8
13.1940342583797,-59.6414964884824,23,1.4,231.8,-30.8
13.1940341838644,-59.6414965163231,23,2,231.8,-30.8
13.1940341779532,-59.6414965185405,23,1.4,231.8,-30.8
13.1940341738068,-59.6414965877727,23,1.1,231.8,-30.8
13.1940341699517,-59.6414965911868,23,1.3,232,-30.8
13.1940341936993,-59.6414967319038,23,1.4,232.1,-30.8
13.1940342349748,-59.6414967913514,23,1.2,232.1,-30.8
13.1940343251505,-59.6414968770909,23,1.7,232.1,-30.8
13.1940343556831,-59.6414969533625,23,1.9,232.2,-30.8
13.1940343100727,-59.641496912323,23,1.1,232.2,-30.8
13.194034318811,-59.6414968994409,23,0.6,232.2,-30.8
13.1940342656959,-59.6414968646664,23,0.4,232.4,-30.8
13.1940342270247,-59.6414968326373,23,0.2,232.5,-30.8
13.1940341024441,-59.6414967357051,23,1.2,232.3,-30.8
13.1940340284428,-59.6414966880486,23,1.3,232.2,-30.8
13.1940340221889,-59.6414967455954,23,1,232,-30.8
13.1940339717125,-59.6414966995931,23,1.4,232,-30.8
13.1940338211398,-59.6414966486985,23,1.4,232,-30.8
13.1940337845246,-59.6414966182884,23,0.8,231.8,-30.8
13.1940338622097,-59.6414965564123,23,0.9,231.8,-30.8
13.1940338458982,-59.641496503969,23,1.4,231.9,-30.8
13.1940337685901,-59.6414964687017,23,1.1,231.9,-30.8
13.1940337652319,-59.6414964623662,23,0.8,231.9,-30.8
13.1940337692926,-59.6414964701096,23,1,231.9,-30.8
13.1940337678705,-59.6414964599025,23,1.3,231.8,-30.8
13.1940337875573,-59.6414964891159,23,1.2,231.9,-30.8
13.1940337971523,-59.6414964833436,23,0.8,231.9,-30.8
13.1940339281581,-59.6414964618383,23,0.7,231.9,-30.8
13.194034003513,-59.6414964287181,23,0.4,232,-30.8
13.1940339293403,-59.6414965094597,23,0.1,231.9,-30.8
13.1940339729461,-59.6414965553212,23,0.3,231.9,-30.8
13.1940340171002,-59.6414965136833,23,0.4,232,-30.8
13.1940340400253,-59.6414965240312,23,0.4,232,-30.8
13.1940339979102,-59.6414964792608,23,0.6,232,-30.8
13.1940339984414,-59.6414964697576,23,0.7,231.9,-30.8
13.1940339373761,-59.6414965080166,23,0.6,232.1,-30.8
13.1940339027999,-59.6414965399753,23,1,232.1,-30.8
13.1940338419232,-59.6414964812318,23,1.1,232.1,-30.8
13.1940338412036,-59.6414964866873,23,0.6,232.1,-30.8
13.1940338858031,-59.6414966012179,23,0.5,232.1,-30.8
13.1940338992703,-59.6414966198018,23,0.8,232,-30.8
13.1940338909433,-59.6414967363738,23,0.3,232,-30.8
13.1940339280896,-59.641496801312,23,0,232.1,-30.8
13.1940340455767,-59.6414968657927,23,0.5,232.1,-30.8
13.1940340948367,-59.6414969149275,23,0.5,232.1,-30.8
13.1940341169394,-59.6414968004673,23,0.1,232.1,-30.8
13.1940341318288,-59.6414967875149,23,0,232.1,-30.8
13.1940340766919,-59.6414967824466,23,0,232.2,-30.8
13.1940340715346,-59.6414967842768,23,0.2,232.3,-30.8
13.1940340791249,-59.6414966712596,23,0,232.3,-30.8
13.1940340689645,-59.6414966505991,23,-0.3,232.2,-30.8
13.1940339285693,-59.6414966890341,23,0.2,232.2,-30.8
13.1940338859573,-59.6414966981501,23,0.8,232.3,-30.8
13.1940339797311,-59.6414965598264,23,0.8,232,-30.8
13.1940339875442,-59.6414965320913,23,0.3,231.8,-30.8
13.1940339613293,-59.6414967176843,23,0.3,231.8,-30.8
13.1940339374447,-59.6414967538667,23,0.5,231.9,-30.8
13.1940338638717,-59.6414967185642,23,0.6,231.9,-30.8
13.1940338376226,-59.6414967532332,23,0.5,231.9,-30.8
13.194033745288,-59.6414966955455,23,0.5,232,-30.8
13.1940337130763,-59.6414966858663,23,0.3,232.1,-30.8
13.1940337569219,-59.6414966872038,23,0.2,232.1,-30.8
13.1940337554655,-59.6414966903364,23,0.4,232.1,-30.8
13.1940338021554,-59.6414965491265,23,0.4,232.2,-30.8
13.1940338454356,-59.6414965129442,23,-0.4,232.2,-30.8
13.1940339294603,-59.6414967060694,23,-1.2,232.2,-30.8
13.1940339620489,-59.6414967666784,23,-0.7,232.2,-30.8
13.1940339998463,-59.6414967537259,23,0,232.2,-30.8
13.1940340159351,-59.6414967961733,23,0,232.2,-30.8
13.1940340073681,-59.6414965772488,23,0,232.1,-30.8
13.1940340153354,-59.6414965059048,23,-0.3,232.1,-30.8
13.1940341131528,-59.6414965456772,23,-0.7,232.1,-30.8
13.194034139916,-59.6414965279028,23,-0.6,232,-30.8
13.1940340980578,-59.64149658193,23,-0.2,231.9,-30.8
13.1940341052883,-59.641496578164,23,-0.1,231.9,-30.8
13.1940340800844,-59.6414966222304,23,-0.4,232,-30.8
13.1940340742246,-59.6414966544004,23,-0.4,232,-30.8
13.1940340779769,-59.6414965922427,23,0.1,231.8,-30.8
13.1940340617168,-59.6414965649299,23,0.1,231.9,-30.8
13.1940340949223,-59.6414964530391,23,-0.2,232,-30.8
13.194034123416,-59.6414963982728,23,-0.5,231.9,-30.8
13.1940340826373,-59.6414963490676,23,-1.1,231.8,-30.8
13.1940340725283,-59.6414963217548,23,-1,231.9,-30.8
13.1940340879317,-59.641496175547,23,-0.6,232,-30.8
13.1940340956762,-59.6414960621075,23,-1.3,232.1,-30.8
13.1940340662916,-59.6414961621722,23,-1.9,232.2,-30.8
13.1940340389973,-59.6414961847686,23,-1.1,232.1,-30.8
13.1940339435101,-59.6414959988236,23,-0.6,232.1,-30.8
13.1940339314478,-59.6414959230095,23,-1.6,232.2,-30.8
13.1940341075843,-59.6414960009354,23,-2.1,232.2,-30.8
13.1940341459128,-59.6414960702732,23,-1.3,232.1,-30.8
13.1940342632972,-59.6414961020208,23,-0.7,232.1,-30.8
13.1940343208328,-59.641496108145,23,-1.4,232.1,-30.8
13.1940342060014,-59.6414962420339,23,-1.9,232.1,-30.8
13.1940342004672,-59.6414962974338,23,-1,232,-30.8
13.1940341443365,-59.6414962102511,23,-0.1,231.9,-30.8
13.1940341016731,-59.6414962142636,23,-0.2,232,-30.8
13.194034193922,-59.6414963041212,23,-0.5,232,-30.8
13.1940342262537,-59.6414963270343,23,-0.5,232,-30.8
13.1940340518477,-59.6414963167216,23,-0.4,232,-30.8
13.194033994809,-59.6414963393532,23,-0.4,232,-30.8
13.194033925845,-59.6414962627648,23,-0.4,232,-30.8
13.1940338825477,-59.6414962301022,23,-0.7,232,-30.8
13.1940338318485,-59.641496288353,23,-0.9,232,-30.8
13.194033785467,-59.6414963016222,23,-0.6,232,-30.8
13.1940337286338,-59.6414963235146,23,-0.4,232,-30.8
13.1940336726403,-59.6414963626184,23,-0.4,232,-30.8
13.1940336649129,-59.641496234537,23,-0.3,232,-30.8
13.1940336558148,-59.6414961794187,23,-0.6,231.9,-30.6
13.194033649955,-59.6414964374469,23,-0.8,231.9,-30.3
13.1940335999583,-59.6414965374764,23,-0.2,231.9,-29.9
13.1940335503214,-59.6414964177366,23,0.2,231.9,-29.4
13.19403353927,-59.6414964244944,23,0.1,231.9,-28.9
13.1940335580316,-59.6414964055937,23,-0.4,231.9,-28.4
13.1940335323308,-59.6414964195317,23,-0.5,232,-27.8
13.1940335022094,-59.6414962500236,23,-0.3,232,-27.5
13.1940335223246,-59.6414962082449,23,-0.6,232,-27.2
13.1940334474494,-59.6414962396757,23,-0.6,231.9,-27.2
13.1940334180305,-59.6414962140524,23,0,231.9,-27.4
13.1940334508591,-59.6414961764621,23,0.1,231.9,-27.7
13.1940334184075,-59.6414961647768,23,-0.1,231.9,-28.1
13.1940334859664,-59.6414960470081,23,-0.2,232,-28.5
13.194033497172,-59.6414960150493,23,-0.4,232,-28.8
13.1940334979944,-59.6414959320199,23,-0.3,231.9,-29.1
13.1940334994508,-59.6414958785911,23,-0.7,232,-29.2
13.1940333596211,-59.6414958347006,23,-0.2,232,-29.2
13.194033320333,-59.6414957867273,23,0.2,232,-29.2
13.1940332044393,-59.6414957008821,23,0,232,-29.2
13.1940331425517,-59.6414956439688,23,-0.2,232,-29.2
13.1940332424252,-59.6414956604761,23,0,232.1,-29.2
13.1940332199113,-59.6414956534368,23,0.3,232.1,-29.2
13.1940331477604,-59.6414956943003,23,0.2,232,-29.2
13.1940331285019,-59.6414957150665,23,0.2,232,-29.2
13.1940331778818,-59.6414956072937,23,0.5,232.1,-29.2
13.1940331901325,-59.6414956311923,23,0.7,232.2,-29.2
13.1940331932338,-59.6414955539704,23,0.5,232,-29.2
13.1940332062213,-59.6414955167673,23,0,232,-29.2
13.1940333110636,-59.6414955623473,23,-0.2,232,-29.2
13.1940333463423,-59.6414955568918,23,-0.2,232.1,-29.2
13.1940332945808,-59.6414955882522,23,-0.2,232.1,-29.2
13.1940333078596,-59.6414956047947,23,-0.2,232,-29.2
13.194033406191,-59.6414956039148,23,0,232.1,-29.2
13.1940334271629,-59.6414956224635,23,0,232.1,-29.2
13.1940335333931,-59.6414957361142,23,-0.2,232.1,-29.2
13.1940335823446,-59.6414957842635,23,-0.2,232.1,-29.2
13.1940335262996,-59.6414955993392,23,-0.2,232.1,-29.2
13.1940335550503,-59.6414955956787,23,-0.4,231.9,-29.2
13.1940335943726,-59.6414955512955,23,-0.4,232,-29.2
13.1940336006608,-59.6414955306349,23,-0.4,231.9,-29.2
13.1940334865833,-59.6414956793416,23,-0.5,231.8,-29.2
13.1940334813403,-59.6414956810663,23,-0.4,231.8,-29.2
13.1940335432451,-59.6414956468197,23,-0.2,231.8,-29.2
13.1940335127467,-59.6414957046834,23,0.1,231.8,-29.2
13.1940334857951,-59.6414956652629,23,0.6,231.8,-29.2
13.1940335046938,-59.6414956351344,23,0.2,231.9,-29.2
13.1940334606597,-59.6414958865104,23,-0.1,231.9,-29.2
13.1940334327314,-59.641496010333,23,0.9,232,-29.2
13.1940334782048,-59.641495953138,23,2.1,232,-29.2
13.1940334987826,-59.6414959800988,23,1.6,232.1,-29.2
13.1940336004037,-59.6414958931978,23,0.6,232.2,-29.2
13.1940336142993,-59.6414958961543,23,0.7,232.2,-29.2
13.1940336238772,-59.6414960002314,23,1.1,232.1,-29.2
13.1940336566029,-59.6414960138174,23,1,232.1,-29.2
13.1940335988103,-59.6414961373232,23,0.8,232.1,-29.2
13.194033611318,-59.6414961795595,23,1,232.1,-29.2
13.1940337106947,-59.6414961306006,23,1.1,232.2,-29.2
13.1940337434375,-59.6414961631225,23,0.8,232.2,-29.2
13.1940336951885,-59.641496218804,23,1,232.1,-29.2
13.1940336958396,-59.6414962334107,23,1.1,232.1,-29.2
13.1940337905215,-59.6414961933566,23,0.9,232.1,-29.2
13.1940338063018,-59.6414961863877,23,0.9,232.1,-29.2
13.1940337971009,-59.6414962390422,23,1.3,232.1,-29.2
13.1940338100199,-59.6414962824751,23,1.4,232.2,-29.2
13.1940337823315,-59.6414961793131,23,0.8,232.2,-29.2
13.19403376883,-59.6414961505572,23,0.7,232.2,-29.2
13.1940336587789,-59.6414963072537,23,1.2,232.1,-29.2
13.1940336373273,-59.6414963404091,23,1.6,232.1,-29.2
13.194033661469,-59.6414963351648,23,1.6,232.1,-29.2
13.19403365136,-59.641496346991,23,1.6,232,-29.2
13.1940335586656,-59.641496288353,23,1.6,232.1,-29.2
13.1940335382248,-59.641496272092,23,1.5,232.2,-29.2
13.1940334439027,-59.64149628156,23,1.4,232.2,-29.2
13.1940334229651,-59.6414962712121,23,1.2,232.2,-29.2
13.1940334655942,-59.6414962935621,23,1.3,232.1,-29.2
13.1940334486488,-59.641496294794,23,1.4,232.1,-29.2
13.1940333592955,-59.6414963019038,23,1.5,232.1,-29.2
13.1940333483812,-59.6414963108086,23,1.7,232,-29.2
13.194033358336,-59.6414963300261,23,1.6,231.9,-29.2
13.194033357822,-59.6414963563885,23,1.6,232,-29.2
13.1940333911132,-59.6414963136595,23,1.5,232,-29.2
13.1940334178421,-59.6414963233387,23,1.3,232,-29.2
13.1940333963904,-59.641496243301,23,0.8,232,-29.2
13.194033401462,-59.6414961675573,23,0.5,232,-29.2
13.194033245595,-59.6414963306244,23,0.7,232,-29.2
13.1940332205966,-59.6414963731774,23,1.3,232,-29.2
13.19403324419,-59.6414962164458,23,1.6,232,-29.2
13.1940332211278,-59.6414962226052,23,1.8,232,-29.2
13.1940332631058,-59.6414961276793,23,1.6,232,-29.2
13.1940332613753,-59.6414960773478,23,1.1,232,-29.2
13.194033420772,-59.6414960568984,23,1.1,232,-29.2
13.1940334810319,-59.6414960336333,23,1.2,232,-29.2
13.1940334289277,-59.6414959287466,23,1.1,232,-29.2
13.194033461979,-59.6414958782039,23,1.1,232,-29.2
13.1940333911132,-59.6414960024488,23,1,232,-29.2
13.1940334145523,-59.6414960251156,23,0.8,232,-29.2
13.1940335069555,-59.64149589091,23,0.8,232,-29.2
13.1940335174414,-59.6414958697215,23,0.9,232.1,-29.2
13.1940335135177,-59.641495738402,23,0.9,232.2,-29.2
13.1940335439304,-59.6414956973976,23,0.2,232.1,-29.2
13.1940336059723,-59.6414955256721,23,0.1,232,-29.2
13.1940336203819,-59.6414954638312,23,0.3,232.1,-29.2
13.1940336135626,-59.6414954110008,23,0.4,232.2,-29.2
13.1940336428616,-59.6414953684126,23,0.1,232.1,-29.2
13.1940335979365,-59.6414953484911,23,0.1,232.1,-29.2
13.1940336034022,-59.6414953334269,23,0.4,232.2,-29.2
13.194033596857,-59.6414953980131,23,0.6,232.2,-29.2
13.1940336099816,-59.6414954180753,23,0.9,232.1,-29.2
13.1940335745658,-59.6414953936839,23,1.1,232.1,-29.2
13.1940335619553,-59.6414953915721,23,1.1,232,-29.2
13.1940336828007,-59.6414954087482,23,1,232,-29.2
13.1940336913333,-59.6414954326116,23,0.8,232,-29.2
13.1940337207351,-59.6414953503214,23,0.8,232,-29.2
13.1940337466758,-59.6414953251556,23,0.4,232,-29.2
13.1940336826465,-59.641495403715,23,0.3,232,-29.2
13.1940336788085,-59.6414954356738,23,1,232.1,-29.2
13.1940338207971,-59.6414954037854,23,1,232.2,-29.2
13.1940338596739,-59.6414954070587,23,0.4,232.2,-29.2
13.1940337901788,-59.6414953986115,23,0.5,232.1,-29.2
13.1940337661228,-59.6414953997026,23,1.1,232,-29.2
13.1940336217355,-59.6414953645057,23,1.1,232,-29.2
13.1940335510753,-59.6414953329693,23,1,232,-29.2
13.1940335049337,-59.6414954073403,23,0.9,232,-29.2
13.194033428842,-59.6414954535538,23,1.7,232.1,-29.2
13.1940334579696,-59.6414954012512,23,2.3,232.1,-29.2
13.19403346825,-59.6414954211375,23,1.8,232,-29.2
13.1940333738936,-59.6414956502338,23,1.6,232,-29.2
13.1940333291399,-59.6414957737044,23,2,232.1,-29.2
13.194033358593,-59.6414957530087,23,2.8,232.2,-29.2
13.1940333437037,-59.6414957819405,23,2.8,232.1,-29.2
13.1940332287866,-59.6414957118635,23,2.3,232.1,-29.2
13.1940331733585,-59.6414957227746,23,2.3,232.1,-29.2
13.1940331249038,-59.6414958022139,23,2.6,232.2,-29.2
13.1940330930347,-59.6414958068247,23,2.5,232.1,-29.2
13.1940329962282,-59.6414958496593,23,2.4,232.1,-29.2
13.1940329309481,-59.6414958902412,23,3,232.1,-29.2
13.1940329407829,-59.6414956598426,23,3.2,232.1,-29.2
13.1940329317705,-59.6414956012046,23,2.4,232.1,-29.2
13.1940329738856,-59.6414956837764,23,2,232.1,-29.2
13.194032977775,-59.6414956899711,23,2.5,232.2,-29.2
13.1940328382023,-59.6414955737159,23,2.6,232.2,-29.2
13.1940328009703,-59.6414955457696,23,2.5,232.2,-29.2
13.1940328610589,-59.6414955802977,23,2.6,232.2,-29.2
13.1940328623782,-59.6414955686475,23,2.7,232.2,-29.2
13.1940328772504,-59.6414954345827,23,2.3,232.1,-29.2
13.1940328894326,-59.6414953870317,23,2,232.1,-29.2
13.1940328996102,-59.6414954875891,23,2.1,232.1,-29.2
13.1940329332954,-59.6414955162042,23,2.2,232.1,-29.2
13.1940329841317,-59.6414955229268,23,2.4,232.1,-29.2
13.1940329915164,-59.6414955554487,23,2.4,232,-29.2
13.1940329763872,-59.6414953690461,23,3,232,-29.2
13.1940329862563,-59.6414953294496,23,2.7,232.1,-29.2
13.194033101636,-59.6414955184216,23,2.3,232.1,-29.2
13.194033125949,-59.6414955568566,23,2.8,232.1,-29.2
13.1940331187185,-59.6414955043076,23,3.1,232.1,-29.2
13.1940331561046,-59.6414955064194,23,2.9,232.2,-29.2
13.1940332044051,-59.6414953796404,23,2.9,232.1,-29.2
13.1940332300717,-59.6414953602469,23,2.7,232.1,-29.2
13.1940330905161,-59.6414953245221,23,2.4,232.1,-29.2
13.1940330968899,-59.6414952792237,23,2.3,232.2,-29.2
13.194033016035,-59.641495455912,23,2.7,232.2,-29.2
13.1940329509604,-59.6414955477054,23,3.7,232.1,-29.2
13.1940330683448,-59.6414953862926,23,4.2,232.1,-29.2
13.194033096136,-59.6414953465201,23,3.1,232.1,-29.2
13.1940331089864,-59.6414952344533,23,2.2,232.1,-29.2
13.1940331331623,-59.6414951812708,23,2.2,232.1,-29.2
13.1940330859756,-59.6414951680368,23,2.5,232.1,-29.2
13.1940330913899,-59.6414951492065,23,2.7,232.2,-29.2
13.194033053781,-59.6414953010106,23,3,232.1,-29.2
13.1940330356362,-59.6414953119216,23,3,232.1,-29.2
13.1940331833475,-59.6414953274082,23,2.7,232.1,-29.2
13.1940332075406,-59.6414953848143,23,2.3,232.1,-29.2
13.1940332127493,-59.6414952795053,23,2.6,232.1,-29.2
13.1940332397009,-59.6414952601118,23,2.7,232.1,-29.2
13.194033175089,-59.6414951686704,23,2.5,232.1,-29.2
13.194033175226,-59.6414951497344,23,2.3,232.1,-29.2
13.194033174455,-59.6414951930266,23,2.1,232.1,-29.2
13.1940331802977,-59.6414952117513,23,2.3,232,-29.2
13.1940332722896,-59.6414954322245,23,2.7,232,-29.2
13.1940332611868,-59.6414954629865,23,3.2,232.1,-29.2
13.1940332759048,-59.6414955915607,23,3.3,232.1,-29.2
13.1940332955917,-59.6414956857827,23,3.1,232.1,-29.2
13.1940332764189,-59.641495395303,23,2.7,232.1,-29.2
13.1940332773612,-59.6414953610212,23,2.4,232.1,-29.2
13.1940332826042,-59.6414953527851,23,2.3,232.2,-29.2
13.194033295883,-59.641495322727,23,2.5,232.1,-29.2
13.1940332760076,-59.6414952668344,23,2.4,232.1,-29.2
13.1940332740372,-59.641495244766,23,2,232.2,-29.2
13.1940332794687,-59.6414952684183,23,2.3,232,-29.2
13.1940332852942,-59.6414952367411,23,2.5,232.1,-29.2
13.1940332532538,-59.641495179335,23,2.4,232,-29.2
13.1940332364455,-59.6414951776456,23,2.3,232,-29.2
13.1940332861509,-59.6414951944344,23,2.6,232,-29.2
13.1940333089904,-59.6414952060846,23,2.5,232,-29.2
13.194033281422,-59.6414951792646,23,2.5,232.1,-29.2
13.1940332810107,-59.641495175393,23,3.3,232.3,-29.2
13.1940332814905,-59.6414953408534,23,3.2,232.2,-29.2
13.1940332853456,-59.6414953929448,23,3.3,232.1,-29.2
13.1940331540828,-59.6414952917186,23,3.4,232.2,-29.2
13.1940331091577,-59.641495235826,23,2.9,232.2,-29.2
13.1940331063306,-59.6414954113175,23,2.6,232.1,-29.2
13.1940330390287,-59.6414954697443,23,3.9,232.2,-29.2
13.1940330864382,-59.6414954394398,23,4.5,232.2,-29.2
13.1940331145549,-59.6414954639368,23,3.2,232,-29.2
13.1940330540551,-59.6414955332747,23,3.6,232.1,-29.2
13.1940330306502,-59.6414955777283,23,4.9,232.2,-29.2
13.1940330621081,-59.641495642209,23,5,232.1,-29.2
13.1940330611314,-59.6414956721615,23,5.1,232.1,-29.2
13.1940330428495,-59.641495637387,23,5.5,232.2,-29.2
13.1940330263496,-59.6414956565693,23,4.7,232.3,-29.2
13.1940329538047,-59.6414955584052,23,3.9,232.2,-29.2
13.1940329252939,-59.6414954987113,23,3.8,232.1,-29.2
13.1940329677688,-59.6414954197296,23,4.3,232.1,-29.2
13.1940329916535,-59.6414953851663,23,4,232.1,-29.2
13.1940329959541,-59.6414954007233,23,4.1,232.1,-29.2
13.1940330108092,-59.6414954300071,23,4.7,232.1,-29.2
13.1940329657984,-59.6414954179345,23,5.2,231.8,-29.2
13.1940329472938,-59.6414954366945,23,6.5,232.1,-29.2
13.1940329712641,-59.6414953670047,23,6.2,232.2,-29.2
13.1940330042297,-59.6414953325118,23,4.5,232,-29.2
13.194032860305,-59.6414955266225,23,4.3,232.1,-29.2
13.1940327766744,-59.6414955687883,23,6.6,232.1,-29.2
13.1940328242553,-59.6414955013863,23,7.2,232.3,-29.2
13.1940328345527,-59.6414954860405,23,6.1,232.1,-29.2
13.1940328868968,-59.6414956063082,23,4.4,232.1,-29.2
13.1940329079201,-59.6414956238714,23,4.3,232.2,-29.2
13.1940329992438,-59.6414956477349,23,5.5,231.9,-29.2
13.1940330017453,-59.6414956687826,23,6.2,231.9,-29.2
13.1940329776893,-59.6414955715688,23,5.2,232.1,-29.2
13.1940330343683,-59.6414955149723,23,4.3,232.1,-29.2
13.1940329773638,-59.6414956042667,23,4.7,231.9,-29.2
13.1940329736115,-59.6414956141571,23,4.5,231.9,-29.2
13.1940329834292,-59.641495576426,23,4.5,232,-29.2
13.1940329974104,-59.6414955539704,23,5,232.1,-29.2
13.1940329911394,-59.64149556284,23,5,232.1,-29.2
13.1940329904198,-59.6414955128957,23,5.1,231.9,-29.2
13.1940329587735,-59.6414954760094,23,4.9,232.3,-29.2
13.1940329644106,-59.6414954534482,23,2.6,232.5,-29.2
13.1940329639651,-59.6414954785083,23,4.8,232.1,-29.2
13.1940329709043,-59.6414954655911,23,6.5,232,-29.2
13.1940330069026,-59.6414956144034,23,4.4,232.2,-29.2
13.1940330834569,-59.6414956328466,23,2.2,232.1,-29.2
13.1940331138696,-59.6414956431945,23,2.5,231.9,-29.2
13.1940331107169,-59.6414956853603,23,4,232,-29.2
13.1940330710519,-59.6414955779395,23,4.9,232.2,-29.2
13.1940330873292,-59.6414955371463,23,4.2,232.1,-29.2
13.1940329492813,-59.6414954862868,23,3.1,232.2,-29.2
13.1940328973313,-59.6414954776988,23,3.3,232.2,-29.2
13.1940329446209,-59.6414954407773,23,3.8,232.2,-29.2
13.1940329333639,-59.6414953912201,23,4.1,232.2,-29.2
13.1940328630121,-59.6414953557769,23,3,232.4,-29.2
13.1940328254546,-59.6414952905923,23,2.3,232.1,-29.2
13.1940327339254,-59.6414953430356,23,3.8,232.2,-29.2
13.1940327301216,-59.6414953156876,23,3.7,232.4,-29.2
13.1940327484378,-59.6414952722899,23,2.5,232.2,-29.2
13.1940327254269,-59.6414952511718,23,2.6,232.2,-29.2
13.1940326451546,-59.6414951347758,23,2.8,232.4,-29.2
13.194032624988,-59.6414950776865,23,2.9,232.2,-29.2
13.1940326528477,-59.6414950256303,23,2.5,232.2,-29.2
13.1940326437154,-59.6414949501682,23,2.2,232.4,-29.2
13.194032673734,-59.6414950521687,23,1.7,232.3,-29.2
